,Subrub_Name,Latitude,Longitude
0,Lake Darlot,-23.992438,134.050443
1,North Boyanup,-33.43425,115.686252
2,Meelon,-32.7,115.93333
3,Napier,-35.25703,146.77485
4,South Plantations,-24.850073,113.744603
5,South Lake,-23.992438,134.050443
6,Orana,-34.99601,117.85925
7,Yallabatharra,-28.207684,114.306337
8,Carnarvon,-24.885093,113.658465
9,Holmwood,-29.03197,115.60415
10,Meadow,-23.992438,134.050443
11,Nalyerlup,-23.992438,134.050443
12,Gledhow,-35.007359,117.828427
13,Ginginup,-31.181843,115.923067
14,Cockatoo Springs,-23.992438,134.050443
15,Embleton,-31.902106,115.91083
16,Boorabbin,-31.20764,120.30864
17,Madora Bay,-32.469241,115.752635
18,Throssell,-23.992438,134.050443
19,Bruce Rock,-23.992438,134.050443
20,Meadow Springs,-23.992438,134.050443
21,Youngs Siding,-34.316951,148.294442
22,South Kumminin,-32.2,118.33333
23,Yalgoo,-28.33333,116.68333
24,Swan View,-31.882356,116.052167
25,Hillman,-32.2822,115.764226
26,Lake Argyle,-15.791947,128.693418
27,Abba River,-23.992438,134.050443
28,North Jindong,-23.992438,134.050443
29,Pearsall,-31.781469,115.819937
30,Kellerberrin,-31.627991,117.710861
31,Beenong,-33.04496,118.58526
32,Massey Bay,-36.21667,142.86667
33,Little Grove,-23.992438,134.050443
34,Safety Bay,-32.305638,115.73654
35,Alfred Cove,-32.032928,115.817358
36,Baudin,-23.992438,134.050443
37,Bakers Hill,-23.992438,134.050443
38,Narrogin Valley,-32.919677,117.09208
39,Peak Hill,-23.992438,134.050443
40,Yuna,-28.33333,115.0
41,Koomberkine,-31.1,117.03333
42,Brockman,-23.992438,134.050443
43,Robinson,48.78016,2.259647
44,Geegully Creek,-23.992438,134.050443
45,Southampton,32.253521,-64.835012
46,Baldivis,-32.322549,115.829396
47,Jennacubbine,-31.45,116.73333
48,Dampier Archipelago,-23.992438,134.050443
49,Reedy,-27.15,118.26667
50,Morangup,-31.648832,116.347092
51,Wickham,-32.916821,151.759992
52,Cliff Head,-23.992438,134.050443
53,Banjup,-32.141369,115.884426
54,Narembeen,-32.061908,118.394023
55,Goodlands,-20.035,57.64306
56,Zanthus,-31.03511,123.57749
57,Greenhills,-31.9208,116.96435
58,Bluff Point,-23.992438,134.050443
59,Eglinton,-31.58677,115.68878
60,Bodallin,-31.37658,118.8761
61,Broome,-17.962931,122.231319
62,Dryandra,-32.76667,116.96667
63,Northbridge,-31.946292,115.855719
64,Cape Le Grand,-33.991322,122.186165
65,Baskerville,-31.797214,116.043559
66,Middleton Beach,-35.028099,117.916743
67,Golden Bay,-32.425354,115.760987
68,Nollamara,-31.880525,115.845891
69,Bencubbin,-30.8,117.86667
70,Benjinup,-33.76667,116.31667
71,Lol Gray,-32.765763,117.017895
72,Kalbarri,-27.716568,114.166305
73,Bow Bridge,-23.992438,134.050443
74,Keysbrook,-23.992438,134.050443
75,Madeley,-31.811325,115.829613
76,Stratton,-31.867369,116.040903
77,Waterloo,43.479869,-80.539218
78,Parkerville,-31.85087,116.124325
79,Arrowsmith,-23.992438,134.050443
80,Gascoyne Junction,-25.05,115.21667
81,East Beverley,-41.051541,144.662772
82,Halls Head,-32.54196,115.703903
83,Gillingarra,-30.9378,116.04955
84,Uduc,-33.049338,115.816711
85,Dumbarton,-31.54811,116.50143
86,Regans Ford,-30.98287,115.702476
87,Warmun,-17.031791,128.216113
88,Nippering,-33.3,117.63333
89,South Boulder,-23.992438,134.050443
90,West Popanyinning,-32.66667,117.13333
91,Karlgarin,-32.5,118.7
92,Fitzroy Crossing,-18.190768,125.574255
93,Mount Hardey,-31.9,116.86667
94,Devils Creek,-23.992438,134.050443
95,Ashfield,-33.888031,151.124724
96,Kinross,-31.717887,115.738033
97,Kwinana Beach,-32.225844,115.82727
98,Etmilyn,-23.992438,134.050443
99,Rangeway,-23.992438,134.050443
100,Cosmo Newbery,-28.000919,122.895105
101,Wagerup,-32.92888,115.87366
102,Ongerup,-33.96667,118.48333
103,Feysville,-23.992438,134.050443
104,Marrinup,-32.7,116.01667
105,Malaga,-23.992438,134.050443
106,Jerramungup,-33.950588,118.915898
107,Stove Hill,-20.746852,116.824688
108,Gnarabup,-33.994332,114.99791
109,Cannington,-32.015621,115.937375
110,Pithara,-30.4,116.66667
111,Mount Burges,-30.85199,121.11697
112,Pingelly,-32.531841,117.085277
113,Seabird,-31.265357,115.455747
114,Meru,-23.992438,134.050443
115,Mount Romance,-37.826477,140.775335
116,Kwinana Town Centre,-32.248008,115.814606
117,Gascoyne River,-24.646956,116.933276
118,Boscabel,-33.66667,117.05
119,Byford,-32.229476,116.013563
120,Quedjinup,-33.63359,115.08386
121,Lake Grace,-33.102247,118.464337
122,Dangin,-32.05,117.31667
123,Leschenault,-33.242808,115.705585
124,Ularring,-23.992438,134.050443
125,Rockingham,-23.992438,134.050443
126,Fitzgerald,43.990804,-88.605312
127,Meeking,-23.992438,134.050443
128,North Bannister,-23.992438,134.050443
129,Bullabulling,-31.01347,120.87104
130,Lake Brown,-30.95,118.33333
131,Shoalwater,-32.292276,115.708376
132,Woorree,-28.767913,114.656638
133,Cundeelee,-31.050479,123.211573
134,Bokal,-33.4814,116.90049
135,Ferguson,38.745193,-90.302428
136,Jingalup,-33.96667,117.03333
137,Piara Waters,-32.13222,115.914448
138,South Hedland,-20.405054,118.598058
139,Hamilton Hill,-32.082936,115.779263
140,Hillside,-37.69047,144.74172
141,Dwarda,-32.76667,116.66667
142,Julimar,-31.49353,116.115081
143,Jindalee,-31.642152,115.686137
144,Melaleuca,52.374687,8.996665
145,Wandering,-32.68333,116.66667
146,Crossman,43.997266,-70.057921
147,Shelley,-32.02956,115.886484
148,Blythewood,-32.70444,115.82366
149,Yellowdine,-31.29275,119.65321
150,Hoddys Well,-23.992438,134.050443
151,Pinjarra,-32.61281,115.867498
152,South Stirling,-23.992438,134.050443
153,Mount Walker,-23.992438,134.050443
154,Walgoolan,-31.38333,118.56667
155,Beldon,-31.774217,115.762498
156,Palgarup,-34.2,116.16667
157,Victory Heights,-30.778827,121.472761
158,Gregory,43.232256,-99.424925
159,Cascade,-4.66667,55.5
160,Wilga West,-33.68333,116.23333
161,Mount Madden,-33.26667,119.78333
162,South Kalgoorlie,-30.763259,121.478901
163,Malabaine,-23.992438,134.050443
164,Kensington,-33.911221,151.219501
165,Nanga Brook,-23.992438,134.050443
166,Marracoonda,-33.65,117.41667
167,Muntadgin,-31.75,118.56667
168,Condingup,-33.76407,122.48444
169,Busselton,-33.655377,115.350089
170,Neerabup,-31.705335,115.758756
171,Collingwood Heights,-34.992784,117.920798
172,Karrinyup,-31.872359,115.776542
173,Collingwood Park,-27.621869,152.856145
174,Kununoppin,-31.11174,117.91793
175,Kojarena,-28.72237,114.8656
176,Cowalellup,-23.992438,134.050443
177,Bolgart,-31.26667,116.5
178,Wicherina South,-28.71778,115.0144
179,Leederville,-31.932022,115.841834
180,Queens Park,-32.003661,115.944763
181,Beedelup,-23.992438,134.050443
182,Samson,-32.069853,115.797816
183,Murdong,-33.75771,117.5995
184,North Beach,43.889928,-124.099983
185,Mcbeath,-23.992438,134.050443
186,East Augusta,-23.992438,134.050443
187,Tom Price,-22.686291,117.794204
188,Paradise,36.092329,-115.123309
189,East Lyons River,-38.01667,141.46667
190,Coondle,-31.48333,116.43333
191,Lamington,-28.23333,153.0
192,Carrolup,-33.74348,117.39987
193,Westwood,42.302015,-85.645312
194,Bobalong,-23.992438,134.050443
195,Little Italy,41.867879,-87.664981
196,San Remo,40.895113,-73.223817
197,Wanarn,-23.992438,134.050443
198,Atwell,-32.143585,115.865984
199,Carrabin,-31.39363,118.67186
200,Balcatta,-31.867389,115.819136
201,Karragullen,-32.1,116.13333
202,Mitchell Plateau,-23.992438,134.050443
203,Bibra Lake,-32.09838,115.828945
204,North Walpole,-23.992438,134.050443
205,Deanmill,-34.25,116.08333
206,Willetton,-32.052548,115.888617
207,Innawanga,52.374687,8.996665
208,Binningup,-33.158366,115.691025
209,Koondoola,-31.840426,115.866316
210,Redmond West,47.688678,-122.115347
211,Beacon,-33.7528,151.25857
212,Canning Vale,-32.0816,115.918055
213,Binduli,-23.992438,134.050443
214,Minilya,-23.75081,114.014793
215,Karratha,-20.734043,116.844766
216,Piawaning,-30.85,116.36667
217,Fitzgerald River National Park,-33.912999,119.66614
218,Valentine,-33.015115,151.63991
219,Upper Murray,-23.992438,134.050443
220,Dalwallinu,-30.277564,116.659497
221,Brookton,-23.992438,134.050443
222,Bullock Hills,-23.992438,134.050443
223,Hamersley Range,-23.992438,134.050443
224,South Guildford,-31.979391,115.805544
225,West Pingelly,-32.531841,117.085277
226,Mariginiup,-31.709114,115.842448
227,Yoting,-31.96017,117.59142
228,Doubleview,-31.896202,115.781467
229,Stirling,-31.885319,115.810799
230,Leeming,-32.073754,115.865151
231,Claremont,-31.980669,115.782466
232,Chittering,-31.46766,116.0801
233,Mingenew,-29.195687,115.447144
234,Forrestdale,-23.992438,134.050443
235,Kulin,-32.669988,118.161891
236,Stratham,-33.46324,115.5862
237,Kirk Rock,-23.992438,134.050443
238,Point Grey,-38.678809,143.836784
239,Mount Pleasant,32.904764,-79.789035
240,Quelagetting,-23.992438,134.050443
241,Warburton,-32.4068,149.3596
242,Glen Iris,-37.857269,145.06516
243,Widgiemooltha,-31.49593,121.5787
244,Gap Ridge,-23.992438,134.050443
245,Yandanooka,-29.31667,115.55
246,Spencer Park,-35.003941,117.902019
247,Landsdale,-31.807407,115.864383
248,Munster,-32.13752,115.77691
249,Lort River,-23.992438,134.050443
250,Trayning,-31.11667,117.8
251,Bejoording,-31.4,116.5
252,Middlesex,-41.556747,146.008644
253,Catterick,-33.835781,116.144387
254,Mount Hardman,-18.237981,125.047335
255,Badgingarra,-30.319923,115.05129
256,Murdoch,-23.992438,134.050443
257,Marchagee,-30.05,116.06667
258,Kaloorup,-23.992438,134.050443
259,Edgewater,-23.992438,134.050443
260,Mount Wells,-23.992438,134.050443
261,Gelorup,-33.427929,115.640826
262,Hindmarsh,-36.108871,141.74312
263,Lake Biddy,-33.00194,118.9292
264,Watheroo,-30.28333,116.06667
265,Wamenusking,-32.12583,117.5997
266,Carey Park,-33.354925,115.651805
267,Chadwick,-23.992438,134.050443
268,Bentley,-32.009145,115.913658
269,Cardiff,-32.937257,151.664053
270,Abrolhos Islands,52.038912,13.748665
271,Caversham,-31.875848,115.974037
272,South Bunbury,-33.348755,115.631785
273,Winnejup,-23.992438,134.050443
274,Beeliar,-32.134133,115.80637
275,Malmalling,-23.992438,134.050443
276,Somerville,-23.992438,134.050443
277,Badgerin Rock,-23.992438,134.050443
278,Crooked Brook,-23.992438,134.050443
279,Coorow,-29.883492,116.018353
280,Stoneville,-31.853784,116.171311
281,Finucane,-20.298909,118.560333
282,Georgina,-28.8775,114.7536
283,Prince Regent River,18.547808,-72.343769
284,Coral Bay,-23.14526,113.774354
285,Manmanning,-30.85,117.1
286,Bonniefield,-29.116388,115.141295
287,Girrawheen,-31.840941,115.839453
288,West Fitzgerald,-23.992438,134.050443
289,Greenfields,-32.52526,115.761532
290,Mount Horner,-37.688633,144.628781
291,Harvey,-33.077958,115.910244
292,Wickepin,-32.783602,117.501516
293,Cullacabardee,-31.815058,115.90119
294,Schroeder,-26.398783,-49.079532
295,Scott River East,-23.992438,134.050443
296,Holyoake,-32.71667,116.08333
297,Beresford,-28.756974,114.619644
298,Hazelvale,-34.960386,116.788101
299,Channybearup,-23.992438,134.050443
300,Muckenburra,-31.404219,115.811951
301,Pippingarra,-23.992438,134.050443
302,Nullagine,-21.889361,120.107461
303,Cordering,-23.992438,134.050443
304,West Holleton,-31.95,119.03333
305,Wyalkatchem,-31.177375,117.383665
306,Jolimont,-23.992438,134.050443
307,Marvel Loch,-32.045047,115.785997
308,Gorge Rock,-23.992438,134.050443
309,Waroona,-32.846699,115.926519
310,Sandsprings,-23.992438,134.050443
311,Marybrook,-33.670988,115.20685
312,West Coolup,-32.75364,115.7986
313,Victoria Park,-31.976056,115.893254
314,Forrestania,-23.992438,134.050443
315,Kambalda West,-31.212538,121.609999
316,Borderdale,-23.992438,134.050443
317,Lower Hotham,-32.8,116.3
318,Marble Bar,-21.286547,118.388459
319,Badjaling,-23.992438,134.050443
320,Cooya Pooya,-23.992438,134.050443
321,Herron,-32.76,115.674455
322,Orange Springs,-23.992438,134.050443
323,Leonora,-28.909076,121.338316
324,Henderson,-23.992438,134.050443
325,Woodanilling,-33.56667,117.43333
326,Warnbro,-32.343686,115.757715
327,Dianella,-23.992438,134.050443
328,Irishtown,-23.992438,134.050443
329,Madura,-7.0,113.33333
330,Merkanooka,-23.992438,134.050443
331,Palmdale,34.563189,-118.072606
332,Pegs Creek,-20.737159,116.834436
333,Northam,-31.653172,116.66542
334,Nairibin,-23.992438,134.050443
335,Upper Warren,-31.70224,147.83392
336,Doodlakine,-31.58333,117.85
337,Mullaloo,-31.779677,115.739269
338,Stake Hill,-32.464376,115.798527
339,Collie,-33.350983,116.161304
340,Carramar,-31.698884,115.782338
341,Qualeup,-33.83333,116.8
342,Moonyoonooka,-28.814329,114.775303
343,Muradup,-33.83333,116.98333
344,Grimwade,-23.992438,134.050443
345,Useless Loop,-26.13333,113.41667
346,Codjatotine,-23.992438,134.050443
347,South Lake Grace,-35.2025,149.107363
348,Dampier,-20.664103,116.711014
349,South Bodallin,-31.37658,118.8761
350,Koorda,-30.819029,117.482626
351,Looma,-18.050245,124.121411
352,Coonana,-23.992438,134.050443
353,Redgate,-23.992438,134.050443
354,Beaufort River,5.375257,115.704204
355,West Perth,-31.947939,115.842461
356,Miling,-30.5,116.35
357,Stirling Estate,-31.885319,115.810799
358,Manning,-32.013364,115.869829
359,West River,-23.992438,134.050443
360,Centennial Park,-35.012289,117.879602
361,Wooramel,-25.77087,114.29419
362,Hulongine,-23.992438,134.050443
363,Connolly,-31.748386,115.750504
364,Hill River,-23.992438,134.050443
365,Hopeland,-32.37746,115.887282
366,Redbank,-23.992438,134.050443
367,Gairdner,-23.992438,134.050443
368,Mount Richon,-32.175964,116.019815
369,Rivervale,-23.992438,134.050443
370,Port Albany,-35.030293,117.899104
371,Tuart Hill,-31.898041,115.835157
372,Boallia,-23.992438,134.050443
373,Scaddan,-33.44452,121.73105
374,Watermans Bay,-31.849596,115.758667
375,East Popanyinning,-32.63333,117.25
376,Ballaying,-33.30641,117.55248
377,Beachlands,-28.785413,114.602478
378,Jalbarragup,-34.236649,115.539566
379,Keralup,-32.42548,115.831929
380,Narraloggan,-23.992438,134.050443
381,Moore River National Park,-42.68333,146.73333
382,Mungalup,-23.992438,134.050443
383,St Ronans,-23.992438,134.050443
384,Leighton,42.724732,-85.599209
385,South Fremantle,-32.071467,115.754696
386,Calingiri,-31.1,116.45
387,Linfarne,-23.992438,134.050443
388,Wongoondy,-23.992438,134.050443
389,Carabooda,-31.605768,115.688632
390,Walkaway,-28.95,114.8
391,Mollerin,-30.45,117.51667
392,Corinthia,52.374687,8.996665
393,East Perth,-31.954127,115.875978
394,Whiteman,-31.82462,115.941242
395,Medina,-32.234307,115.80572
396,Kealy,-33.654209,115.228729
397,Peaceful Bay,-35.0225,116.9165
398,Wokalup,-33.11667,115.86667
399,Boyup Brook,-33.835396,116.388652
400,Sorrento,-31.827953,115.753466
401,North Eradu,-23.992438,134.050443
402,Crowea,-23.992438,134.050443
403,Wedgecarrup,-23.992438,134.050443
404,Wandi,-23.992438,134.050443
405,Callcup,-34.50904,116.001704
406,Gibson Desert South,-23.992438,134.050443
407,Nembudding,-31.19494,117.57371
408,Ballajura,-31.839857,115.895661
409,East Cannington,-32.008652,115.958791
410,Orelia,-23.992438,134.050443
411,Mullingar,-30.716403,121.474845
412,Nomans Lake,-32.9256,117.51938
413,Glen Forrest,-31.918843,116.107624
414,Kumarina,-23.992438,134.050443
415,Tutunup,-33.734182,115.574554
416,Swanbourne,-31.977213,115.765969
417,Huntingdale,-32.083154,115.965591
418,Goode Beach,-35.102806,117.932408
419,Bilbarin,-32.20612,117.95288
420,Camillo,-32.113022,116.002054
421,Hester,-33.9,116.15
422,Southern River,-32.107257,115.957166
423,Lyndon,-23.992438,134.050443
424,Karrakatta,-31.969093,115.799574
425,Greenwoods Valley,-23.992438,134.050443
426,Vittoria,36.952688,14.530237
427,Lake King,-23.992438,134.050443
428,Ferndale,-23.992438,134.050443
429,Lake Clifton,-32.798317,115.690229
430,Woogenellup,-34.51667,117.83333
431,Overlander,52.374687,8.996665
432,Perth Airport,-31.940614,115.970601
433,Albany,-35.031075,117.89494
434,Flynn,-35.213731,149.046505
435,Beaconsfield,-33.911797,151.20042
436,Ellenbrook,-31.767802,115.967392
437,Coconut Wells,14.552312,121.103547
438,Hillarys,-31.80758,115.743774
439,Collie Burn,-33.4,116.18333
440,Wilberforce,-23.992438,134.050443
441,Jelcobine,-23.992438,134.050443
442,Langford,-32.040754,115.942612
443,South Yilgarn,-31.778959,119.588366
444,Holt Rock,-32.67216,119.40597
445,Baynton,-37.14919,144.63368
446,Haynes,-32.161004,115.979773
447,Dwellingup,-32.712306,116.057386
448,Cooladar Hill,-28.293741,118.110964
449,Norseman,-32.197872,121.776329
450,Moulyinning,-33.25,117.93333
451,Nullaki,-23.992438,134.050443
452,Hamelin Bay,-34.22642,115.05707
453,Lexia,-23.992438,134.050443
454,Pinwernying,-23.992438,134.050443
455,Wogolin,-23.992438,134.050443
456,Joondanna,-31.910112,115.8372
457,Nambung,-30.453939,115.317321
458,Morbinning,-32.1,117.15
459,Quindanning,-33.05,116.56667
460,Willare,-17.735394,123.659298
461,Frankland River,-34.323831,116.9905
462,West Leederville,-31.937773,115.832275
463,Henty,-37.66667,141.51667
464,Talandji,52.374687,8.996665
465,Balkuling,-31.98122,117.11389
466,Karijini,-22.734073,118.276062
467,Mardie,-21.004177,116.847832
468,Ajana,-27.95,114.63333
469,Yangebup,-32.119004,115.824089
470,Murchison,-26.89493,115.95749
471,North Greenbushes,-33.920483,116.046836
472,Lumeah,52.374687,8.996665
473,Walyurin,-23.992438,134.050443
474,Wubin,-30.1,116.63333
475,Mobrup,-34.12574,116.9282
476,Jilakin,-35.73333,148.5
477,Bicton,-32.026481,115.78594
478,Wungong,-32.181572,116.00579
479,Vasse,-33.68717,115.267761
480,Picton,-34.178405,150.613575
481,Karawara,-32.008891,115.881143
482,Kununurra,-15.772203,128.739119
483,Israelite Bay,-23.992438,134.050443
484,Tincurrin,-32.9768,117.77394
485,Meerup,-34.724734,116.32515
486,North Coogee,-32.092075,115.760651
487,Jaloran,-33.15,117.43333
488,Thomson Brook,-38.169813,144.38058
489,Gwelup,-31.872503,115.795624
490,Dayton,-23.992438,134.050443
491,St George Ranges,-19.012964,124.979734
492,Paynesville,-37.909982,147.720467
493,Duncraig,-31.832363,115.775961
494,Cullalla,-23.992438,134.050443
495,Mount Helena,-31.856356,116.206282
496,Beechboro,-31.868551,115.938822
497,Beermullah,-23.992438,134.050443
498,Bulong,-30.74842,121.7945
499,Dartnall,-23.992438,134.050443
500,Jandakot,-32.104776,115.864697
501,Geraldton,-28.778088,114.61619
502,Rosa Brook,-33.95,115.18333
503,Buckland,-42.6,147.71667
504,Jerdacuttup,-33.89639,120.21303
505,Hovea,-23.992438,134.050443
506,Shoalwater Bay,-23.992438,134.050443
507,South Yunderup,-32.592535,115.792329
508,Courtenay,-23.992438,134.050443
509,Cowalla,-23.992438,134.050443
510,Kordabup,-34.948912,117.107832
511,Ord River,-20.06847,127.958426
512,Dampier Peninsula,-16.939238,122.970725
513,Oakford,-32.208084,115.930059
514,Ora Banda,-30.37699,121.06187
515,Antonymyre,52.374687,8.996665
516,Wuraming,-32.8,116.28333
517,Harris River,-23.992438,134.050443
518,Kwelkan,-31.14467,117.99558
519,Coblinine,-23.992438,134.050443
520,North Perth,-31.926971,115.853269
521,Nulsen,-33.860231,121.864964
522,Deepdene,-23.992438,134.050443
523,Landor Station,-25.1,116.900002
524,Noggerup,-33.58333,116.16667
525,Port Kennedy,-32.375031,115.75212
526,West End,-23.992438,134.050443
527,Kimbolton,-23.992438,134.050443
528,Warwick,-31.83974,115.80855
529,Kojaneerup South,-23.992438,134.050443
530,Yelverton,-33.75048,115.1196
531,Paulls Valley,-23.992438,134.050443
532,Bannister,-23.992438,134.050443
533,Birchmont,-23.992438,134.050443
534,The Spectacles,-23.992438,134.050443
535,Plumridge Lakes,-29.47461,125.24969
536,Ascot,-31.93818,115.92258
537,North Baandee,-31.58318,117.95363
538,Roleystone,-32.12105,116.078647
539,Xantippe,-30.03333,117.03333
540,Glenfield,-33.971601,150.893919
541,Bilingurr,-17.913161,122.217277
542,Anketell,-32.218996,115.865241
543,North Trayning,-31.11667,117.8
544,Mcalinden,-33.57801,116.29852
545,Mount Anketell,-32.218996,115.865241
546,Broke,-35.005464,116.553783
547,Badgin,-23.992438,134.050443
548,Muluckine,-31.684949,116.735354
549,Yeagarup,-34.421668,115.862737
550,Waggrakine,-28.689306,114.659095
551,Cowcowing,-30.99835,117.44966
552,Christmas Creek Station,-18.874906,125.925801
553,Kadathinni,-23.992438,134.050443
554,East Nannup,-33.989373,115.762659
555,Red Gully,-23.992438,134.050443
556,Mount Claremont,-31.959823,115.782144
557,Tapping,-31.719313,115.795895
558,Tarin Rock,-33.10753,118.23078
559,Duranillin,-33.51667,116.78333
560,Rottnest Island,-23.992438,134.050443
561,East Nabawa,-28.251085,115.191991
562,Boulder,-30.777653,125.050029
563,West Pinjarra,-32.704627,115.771802
564,Westonia,-31.3,118.7
565,Yoongarillup,-33.71519,115.4268
566,Woodlands,1.43801,103.78877
567,Paynedale,-23.992438,134.050443
568,Newdegate,-33.1,119.01667
569,Inglewood,-34.83333,138.76667
570,Erskine,-32.557178,115.697646
571,Gibson,35.992057,-88.937573
572,Meekatharra,-26.599993,118.4833
573,Inggarda,-23.992438,134.050443
574,Tardun,-28.8,115.75
575,Quellington,-23.992438,134.050443
576,Bootenal,-28.85583,114.7275
577,Peppermint Grove,-23.992438,134.050443
578,White Peak,-28.617668,114.630186
579,Clarkson,-31.683405,115.725025
580,Yornup,-34.061262,116.116284
581,Shenton Park,-31.952409,115.79829
582,Abbey,-33.663577,115.256354
583,Chowerup,-34.08491,116.6746
584,Cottesloe,-31.994051,115.758617
585,Kunjin,-32.35543,117.7709
586,Nannup,-33.989373,115.762659
587,Gnowellen,-23.992438,134.050443
588,West Binnu,-23.992438,134.050443
589,Oakajee,-28.56965,114.63096
590,Sinagra,-31.742932,115.805616
591,Kojonup,-33.823884,117.143693
592,Merivale,52.374687,8.996665
593,Jandakot Airport,-32.09238,115.879194
594,Pintharuka,-29.09403,115.982
595,Boodarie,-20.358584,118.563614
596,Yokine,-31.901025,115.854223
597,East Bowes,-23.992438,134.050443
598,Lesley,52.374687,8.996665
599,Berkshire Valley,-30.55,116.16667
600,Wattening,-31.33333,116.51667
601,Gingin,-31.348721,115.911511
602,East Pingelly,-32.501758,117.227868
603,Glen Mervyn,-23.992438,134.050443
604,Parkeston,-30.733205,121.492572
605,Mandogalup,-32.191179,115.845482
606,Narra Tarra,-28.7,114.71667
607,Rosa Glen,-33.984648,115.179634
608,Beckenham,-32.023899,115.959731
609,Tjirrkarli,-23.992438,134.050443
610,Nunierra,-23.992438,134.050443
611,Minnenooka,-28.776906,114.965153
612,Breera,-23.992438,134.050443
613,Hilbert,-32.179467,115.984871
614,Dongolocking,-33.13333,117.81667
615,Irwin,-29.2204,115.08006
616,Northern Gully,-28.71379,114.90866
617,Palmer,-23.992438,134.050443
618,Cloverdale,-31.962795,115.944854
619,Mosman Park,-32.013993,115.76432
620,Booragoon,-32.039531,115.833759
621,Dudley Park,-32.552866,115.730696
622,South Carnarvon,-24.893927,113.657678
623,Brunswick Junction,-23.992438,134.050443
624,Cardup,-32.25,116.0
625,Karakin,-23.992438,134.050443
626,Torbay,-35.02333,117.66056
627,Kendenup,-34.48333,117.65
628,Tammin,-31.641784,117.486949
629,Harrisdale,-32.116809,115.933459
630,Millbrook,32.508789,-86.369756
631,Jandabup,-31.738852,115.858415
632,North Kellerberrin,-31.5,117.68333
633,Boranup,-34.138899,115.056757
634,Palmyra,34.56077,38.28055
635,The Plains,50.430287,-3.683297
636,Burekup,-33.313212,115.814787
637,Mullalyup,-33.73333,115.93333
638,Lakeside,-23.992438,134.050443
639,Bowes,-28.38333,114.66667
640,Dale,-23.992438,134.050443
641,Picton East,-33.331105,115.783441
642,Hines Hill,-23.992438,134.050443
643,West Toodyay,-31.533446,116.432507
644,Viveash,-31.877431,115.997947
645,North Kununoppin,-31.11174,117.91793
646,Chapman Hill,-23.992438,134.050443
647,Mukinbudin,-30.915746,118.20934
648,Balga,-31.855149,115.840427
649,Parklands,-23.992438,134.050443
650,Piccadilly,-30.742766,121.464177
651,York,40.68295,-73.9708
652,Mount Jackson,-23.992438,134.050443
653,Hester Brook,-33.911719,116.109051
654,Wandina,-28.818339,114.633987
655,Narrogin,-32.994201,117.309361
656,Grass Valley,-23.992438,134.050443
657,Cataby,-30.735551,115.539182
658,West Busselton,-33.660938,115.323611
659,Ennuin,-23.992438,134.050443
660,Bambun,-23.992438,134.050443
661,Contine,-32.86667,116.96667
662,Wellington Forest,51.365607,-0.812731
663,Bremer Bay,-34.402017,119.385917
664,Greenbushes,-23.992438,134.050443
665,Karalundi,-23.992438,134.050443
666,Martin,-32.077035,116.044495
667,Magitup,-23.992438,134.050443
668,Midvale,-23.992438,134.050443
669,Ardath,-23.992438,134.050443
670,Nickol,-20.740971,116.802319
671,Alexander Heights,-31.827337,115.865695
672,Doodenanning,-31.86667,117.15
673,Chapman Valley,-23.992438,134.050443
674,Latham,-35.213204,149.03248
675,Carlisle,-31.979073,115.918394
676,Millars Well,-20.741794,116.817312
677,Merilup,-33.26667,118.16667
678,Kukerin,-33.18333,118.08333
679,Denham,-25.924494,113.535379
680,Wansbrough,-34.14321,117.67151
681,Walliston,-32.000915,116.075819
682,Katanning,-33.690071,117.557564
683,Mount Elphinstone,-35.02729,117.86067
684,O'Connor,-35.259718,149.115243
685,Siesta Park,-23.992438,134.050443
686,Isseka,-28.43333,114.63333
687,Mount Stirling,-31.929378,115.875829
688,North Tammin,-31.641784,117.486949
689,Bovell,-33.68011,115.36097
690,Nangetty,-23.992438,134.050443
691,Big Grove,-35.083158,117.889246
692,Morley,-23.992438,134.050443
693,Meckering,-31.63333,117.01667
694,Rocky Gully,-30.81667,151.21667
695,Mokup,-23.992438,134.050443
696,Upper Swan,-31.76667,116.01667
697,Perth,-31.960773,115.834088
698,Southern Cross,-23.992438,134.050443
699,Woodvale,-31.790291,115.797518
700,Biddelia,-23.992438,134.050443
701,Furnissdale,-32.558745,115.771628
702,Treeton,-23.992438,134.050443
703,Quinninup,-34.43549,116.24984
704,Wicherina,-28.71778,115.0144
705,Capel,-33.554111,115.561103
706,Churchlands,-23.992438,134.050443
707,Nedlands,-31.979391,115.805544
708,Greenough,-28.95,114.73333
709,High Wycombe,-31.944037,116.003141
710,Hithergreen,-23.992438,134.050443
711,Utakarra,-28.783918,114.649894
712,Wellington Mill,-33.46667,115.9
713,Mount Sheila,-37.688633,144.628781
714,Jane Brook,-31.860428,116.049627
715,West Swan,-31.844948,115.983122
716,Allanson,-33.333195,116.087059
717,Eaton,52.887496,-1.283754
718,Bindi Bindi,-30.6352,116.35874
719,Attadale,-32.025519,115.801552
720,Nukarni,-31.28333,118.2
721,Gooseberry Hill,-23.992438,134.050443
722,Scott River,-23.992438,134.050443
723,Gorrie,52.374687,8.996665
724,Brunswick,46.595511,-66.334856
725,Emu Point,-34.996281,117.943811
726,Beaumont,30.084818,-94.145006
727,Mundabullangana,-23.992438,134.050443
728,Lennard Brook,-23.992438,134.050443
729,Marangaroo,-31.827601,115.837736
730,East Fremantle,-32.037005,115.768451
731,Lynwood,-32.040192,115.928733
732,Coolcalalaya,-23.992438,134.050443
733,Dowerin,-31.18983,117.037494
734,Kondinin,-32.492975,118.269202
735,Daliak,-23.992438,134.050443
736,Bulyee,-32.36667,117.51667
737,Bookara,-23.992438,134.050443
738,Bushmead,52.374687,8.996665
739,Nowergup,-31.637551,115.765476
740,Aldersyde,-23.992438,134.050443
741,Cossack,-20.7,117.2
742,Lagrange,-23.992438,134.050443
743,Juna Downs,-23.992438,134.050443
744,Mount Melville,-35.017063,117.87121
745,Aubin Grove,-32.167188,115.863184
746,Boya,-31.917659,116.056269
747,The Vines,-31.755004,116.001966
748,Donnelly River,-23.992438,134.050443
749,Orange Grove,-23.992438,134.050443
750,Konnongorring,-31.08333,116.78333
751,Dandaragan,-30.66667,115.7
752,Lake Austin,30.294169,-97.620453
753,Aveley,-31.783474,115.989349
754,Talbot West,-37.17158,143.701962
755,New Norcia,-30.96667,116.21667
756,Koolanooka,-29.25,116.06667
757,Cunderdin,-31.653182,117.237471
758,Ruabon,-23.992438,134.050443
759,Trafalgar,-23.992438,134.050443
760,Drysdale River,-23.992438,134.050443
761,Welshpool,-38.66667,146.43333
762,Harrismith,-32.93571,117.8609
763,West Casuarinas,-23.992438,134.050443
764,Bayswater,-37.847229,145.259872
765,Yilkari,-23.992438,134.050443
766,Riverton,-32.034348,115.900418
767,Falcon,-23.992438,134.050443
768,Ikewa,-23.992438,134.050443
769,Lime Lake,-23.992438,134.050443
770,Seabrook,-23.992438,134.050443
771,St James,18.390938,-77.846498
772,Dinninup,-33.668101,116.336825
773,Fortescue,-43.132497,147.960433
774,Ningaloo,-23.992438,134.050443
775,Cable Beach,-17.929662,122.210302
776,Francois Peron National Park,-42.68333,146.73333
777,Mundaring Weir,-31.927825,116.158943
778,Wardering,-23.992438,134.050443
779,Bickley,-32.001549,116.098217
780,Boyerine,-23.992438,134.050443
781,Djugun,-17.929326,122.239191
782,Moondyne,-23.992438,134.050443
783,Mantamaru,-23.992438,134.050443
784,Dudinin,-32.88333,117.9
785,Benger,-33.16667,115.85
786,Port Denison,-29.303889,114.938896
787,Wialki,-30.48333,118.11667
788,Yealering,-32.6,117.61667
789,Boothendarra,-23.992438,134.050443
790,Dartmoor,-37.919626,141.278023
791,North Dandalup,-32.518291,115.962291
792,Red Hill,-23.992438,134.050443
793,Bullsbrook,-31.662822,116.040641
794,Armadale,-32.150311,116.007062
795,Grants Patch,-30.45,121.11667
796,Cooloongup,-32.315083,115.779933
797,Kirup,-33.7,115.9
798,Muresk,-31.75,116.66667
799,Bridgetown,-33.956033,116.13558
800,Orchid Valley,-33.927137,116.873722
801,Applecross,-32.014095,115.836352
802,Balbarrup,-34.22917,116.2017
803,Waeel,-23.992438,134.050443
804,Lake Hinds,-23.992438,134.050443
805,Reinscourt,-33.628284,115.42289
806,Dumbleyung,-33.313319,117.738429
807,Kingston,17.99702,-76.79358
808,Deepdale,-28.794958,114.703879
809,Tingledale,-34.976408,116.893512
810,Bull Creek,-23.992438,134.050443
811,Hazelmere,-31.913137,116.004582
812,Moonies Hill,-34.08333,117.51667
813,Lake Ninan,-30.952334,116.655539
814,Kanowna,-30.50365,121.416
815,Kauring,-23.992438,134.050443
816,Ashendon,-23.992438,134.050443
817,Boyanup,-33.481705,115.727318
818,Darch,-31.812884,115.845804
819,Moojebing,-23.992438,134.050443
820,Darradup,-23.992438,134.050443
821,Copley,-23.992438,134.050443
822,Karonie,-30.97003,122.53822
823,Nillup,-23.992438,134.050443
824,Wongan Hills,-30.889449,116.722144
825,Ejanding,-23.992438,134.050443
826,Broomehill West,-33.956968,117.496726
827,Diamond Tree,-23.992438,134.050443
828,Ardross,-32.026732,115.835249
829,Lake Coogee,40.773201,-111.933984
830,North Plantations,-24.850073,113.744603
831,Cubbine,-23.992438,134.050443
832,Changerup,-33.72622,116.959829
833,Paraburdoo,-23.201819,117.665872
834,Kings Park,-37.733789,144.771973
835,Merredin,-31.482094,118.275313
836,Seppings,-35.015962,117.913441
837,Yetna,-28.61015,114.6989
838,Glenoran,-23.992438,134.050443
839,Heathridge,-31.762526,115.759526
840,Morgantown,-24.872094,113.661227
841,One Arm Point,-23.992438,134.050443
842,Dunn Rock,-23.992438,134.050443
843,Eden Hill,-31.892442,115.94821
844,Parryville,-35.0093,117.11464
845,Barbalin,-23.992438,134.050443
846,Jacup,-33.81667,119.26667
847,Pelican Point,-23.992438,134.050443
848,Lake Muir,-34.441445,116.648368
849,Craigie,-31.78582,115.771446
850,East Munglinup,-23.992438,134.050443
851,Exmouth,-21.911377,114.128307
852,Korrelocking,-31.2,117.46667
853,Sandpatch,-23.992438,134.050443
854,Telfer,-23.992438,134.050443
855,Cuthbert,-35.020302,117.799362
856,Butler,-31.642924,115.704003
857,Westdale,-23.992438,134.050443
858,Williams,-23.992438,134.050443
859,Cancanning,-33.13333,117.56667
860,East Yuna,-23.992438,134.050443
861,Donnybrook,-37.53333,144.98333
862,Coonabidgee,-23.992438,134.050443
863,Woottating,-31.883995,116.430383
864,Miamoon,-23.992438,134.050443
865,Wallaroo,-30.87628,120.57343
866,Karridale,-34.21667,115.08333
867,Millbridge,-33.306065,115.735128
868,Wandillup,-23.992438,134.050443
869,Gwambygine,-31.94984,116.80664
870,Minnivale,-31.13333,117.18333
871,East Carnarvon,-24.86315,113.67868
872,Koolyanobbing,-30.8212,119.52143
873,Bellevue,47.609759,-122.17074
874,Needilup,-33.95,118.81667
875,Midland,32.020111,-102.117875
876,Wembley,-31.933672,115.816527
877,Australind,-33.275967,115.735991
878,Dawesville,-32.638754,115.635592
879,Calista,-32.233268,115.792385
880,Kingsley,-23.992438,134.050443
881,Nunile,-23.992438,134.050443
882,Bayonet Head,-34.97314,117.934195
883,Nirimba,-23.992438,134.050443
884,Warner Glen,-27.312148,152.950094
885,Waterbank,-23.992438,134.050443
886,Mahogany Creek,-31.909431,116.131089
887,Shark Bay,-23.992438,134.050443
888,Mindarie,-31.688565,115.705884
889,Burakin,-30.5861,117.425527
890,Maylands,-31.936975,115.899112
891,Sturt Creek,-18.808261,128.601401
892,Guildford,-18.21185,141.89124
893,Ambergate,-33.710117,115.32741
894,Ridgewood,40.981647,-74.109702
895,Cleary,-23.992438,134.050443
896,Eradu South,-23.992438,134.050443
897,Coomberdale,-30.46333,116.03925
898,College Grove,-23.992438,134.050443
899,Rossmore,-23.992438,134.050443
900,Boddington,-32.802497,116.462549
901,Alma,18.185868,42.196538
902,Mooliabeenee,-31.33029,116.02121
903,Buller,52.374687,8.996665
904,Burracoppin,-31.38333,118.48333
905,Vancouver Peninsula,-23.992438,134.050443
906,Maitland,-32.730243,151.548524
907,Peron,-23.992438,134.050443
908,Usher,-33.393614,115.609818
909,Champion Lakes,-32.130959,115.975368
910,North Yelbeni,-31.18333,117.66667
911,Shackleton,-31.93333,117.83333
912,Brentwood,51.64015,0.29577
913,Nerramyne,-27.79457,115.4248
914,Yoganup,-23.992438,134.050443
915,Tamala Park,-31.70526,115.727695
916,Wongamine,-31.47599,116.617
917,Belmont,42.395401,-71.179948
918,South Yuna,-28.33333,115.0
919,Willyung,-34.940747,117.843484
920,Cervantes,-23.992438,134.050443
921,Pumphreys Bridge,-23.992438,134.050443
922,Perup,-23.992438,134.050443
923,Brown Hill,-23.992438,134.050443
924,Guilderton,-31.340694,115.517953
925,Wyndham,-37.898525,144.618239
926,Cold Harbour,40.866175,-73.460692
927,Boundain,-32.95,117.31667
928,Nugadong,-30.20385,116.66362
929,Scotts Brook,-23.992438,134.050443
930,Yanmah,-34.233504,115.976652
931,Daggar Hills,-23.992438,134.050443
932,Mount Lawley,-31.929378,115.875829
933,North Moulyinning,-23.992438,134.050443
934,Mocardy,-23.992438,134.050443
935,Prevelly,-33.978221,114.994667
936,Wattleup,-32.169361,115.8124
937,Collanilling,-33.26667,117.5
938,Barragup,-32.537311,115.78848
939,Wangara,-35.88448,137.56846
940,Varley,52.374687,8.996665
941,Kalbarri National Park,22.890827,88.425677
942,Mount Clarence,-35.023098,117.898203
943,Daglish,-31.952218,115.807671
944,Wilga,-33.68333,116.23333
945,Witchcliffe,-34.012036,115.11495
946,Whittaker,-32.54184,116.00249
947,Mokine,-31.745927,116.608161
948,Manypeaks,-34.83333,118.16667
949,Mount Nasura,-32.137343,116.026132
950,Westminster,-31.867959,115.835576
951,Woolocutty,-23.992438,134.050443
952,Ngaanyatjarra-Giles,-26.072866,128.921768
953,Redcliffe,-31.937768,115.942552
954,Lowden,-33.54194,115.922208
955,Chandler,-26.96912,133.36729
956,Augusta,33.47097,-81.97484
957,Turkey Creek,-23.992438,134.050443
958,West Ballidu,-30.6,116.76667
959,Dumberning,-33.017399,117.07372
960,Nanson,-28.56667,114.76667
961,Moorine Rock,-31.3,119.16667
962,Wonthella,-28.765892,114.63075
963,Kudardup,-34.28333,115.1
964,Naraling,-28.4,114.83333
965,Carnamah,-29.688966,115.886104
966,Beelerup,-33.56667,115.85
967,Dunsborough,-33.60766,115.093637
968,East Murchison,-23.992438,134.050443
969,Jurien Bay,-30.299213,115.052734
970,Durack,-27.58911,152.984569
971,Forrest,31.189871,-89.245139
972,South Newdegate,-33.1,119.01667
973,Kulja,-30.48541,117.27753
974,Buniche,-33.0039,118.76601
975,Roebuck,33.578319,-86.690429
976,Warawarrup,-33.03892,115.90023
977,The Lakes,30.807556,-81.64465
978,Durawah,-23.992438,134.050443
979,Silver Sands,-32.508646,115.736117
980,Walyunga National Park,-31.725208,116.076393
981,Mimegarra,-23.992438,134.050443
982,Tenindewa,-28.61778,115.3625
983,Eganu,-23.992438,134.050443
984,Lake Camm,-32.98333,119.58333
985,Exmouth Gulf,-21.911377,114.128307
986,Pindar,-33.41058,136.38501
987,West Cape Howe,-33.962415,25.607776
988,Beadell,-23.992438,134.050443
989,King River,-34.928175,117.910522
990,Warradarge,-30.047117,115.63313
991,North Fremantle,-32.033098,115.754299
992,Neridup,-33.166632,122.997165
993,Holleton,-31.95,119.03333
994,Munglinup,-23.992438,134.050443
995,Canna,-28.898696,115.862759
996,Bonnie Rock,-23.992438,134.050443
997,Eneabba,-29.819905,115.268554
998,Gabalong,-30.72145,116.38899
999,Osborne Park,-31.905534,115.814016
1000,Moodiarrup,-23.992438,134.050443
1001,Green Range,-23.992438,134.050443
1002,Hyden,-32.45,118.88333
1003,Kurnalpi,-30.53671,122.23059
1004,Sawyers Valley,-31.90235,116.20065
1005,Dardadine,-33.23333,116.83333
1006,Maya,20.198643,-75.587808
1007,Hocking,39.493802,-82.479263
1008,Marrah,-23.992438,134.050443
1009,Ghooli,-31.26176,119.45683
1010,Kuender,-32.955165,118.516558
1011,Tibradden,-23.992438,134.050443
1012,Gutha,-28.99401,115.946
1013,Mindarabin,-23.992438,134.050443
1014,Victoria Rock,22.381131,114.135572
1015,Bullaring,-32.5,117.73333
1016,Gosnells,-32.083201,115.992334
1017,Ludlow,-33.6,115.46667
1018,Oakley,39.153408,-84.432039
1019,Leda,-32.267826,115.799561
1020,Hilton,-32.069002,115.785789
1021,Jardee,-34.28333,116.11667
1022,Goomalling,-23.992438,134.050443
1023,Greenwood,-23.992438,134.050443
1024,Jitarning,-32.78691,118.00471
1025,Woodridge,-27.627246,153.106013
1026,Koojan,-30.492078,116.185562
1027,Capricorn,-23.708892,29.388994
1028,Kulin West,-32.80888,118.073061
1029,Bassendean,-31.905139,115.945477
1030,Banksiadale,-23.992438,134.050443
1031,Brookhampton,-33.622468,115.965597
1032,Mueller Ranges,-18.556075,126.856543
1033,Wattle Grove,-23.992438,134.050443
1034,Beela,-33.241576,115.94181
1035,Mettler,40.499442,-74.5279
1036,Spencers Brook,-31.73333,116.63333
1037,Cartmeticup,-33.47,117.5175
1038,Reservoir,-37.712408,145.004061
1039,Shannon,-34.656711,116.323241
1040,Tonebridge,-23.992438,134.050443
1041,Maddington,-32.047741,115.995094
1042,East Chapman,-23.992438,134.050443
1043,Buntine,-29.960891,117.002078
1044,Carbunup River,-33.719676,115.169844
1045,Cowaramup,-33.8523,115.105479
1046,Bouvard,-23.992438,134.050443
1047,Two Rocks,-31.498544,115.598177
1048,Kronkup,-35.03694,117.62417
1049,Trigg,-31.875075,115.755646
1050,Mandurah,-32.52837,115.736444
1051,Whitby,-23.992438,134.050443
1052,Windy Harbour,-34.83333,116.03333
1053,Morawa,-23.992438,134.050443
1054,Spearwood,-23.992438,134.050443
1055,Milpara,-34.986039,117.865454
1056,Pingaring,-32.75,118.61667
1057,Alkimos,-31.619035,115.713157
1058,Borden,-34.08333,118.26667
1059,Scotsdale,-34.941944,117.347453
1060,Mullewa,-28.540676,115.5147
1061,Mundrabilla,-23.992438,134.050443
1062,Sandstone,-27.98333,119.28333
1063,Mount Observation,-37.688633,144.628781
1064,Walmsley,-34.972809,117.902497
1065,Peppermint Grove Beach,-33.526972,115.507765
1066,Mount Cooke,-32.402459,116.294728
1067,Springfield,37.21533,-93.29824
1068,North Kukerin,-23.992438,134.050443
1069,Dundas,-23.992438,134.050443
1070,Arthur River,-33.351,117.0318
1071,Greenmount,-38.54678,146.70155
1072,Crawley,-31.979921,115.819948
1073,Barrabup,-23.992438,134.050443
1074,Gnangara,-31.775553,115.865648
1075,Nabawa,-28.251085,115.191991
1076,Ogilvie,-23.992438,134.050443
1077,Forest Grove,-23.992438,134.050443
1078,Paynes Find,-23.992438,134.050443
1079,Kulikup,-33.81667,116.68333
1080,Muja,-23.992438,134.050443
1081,Lockridge,-31.881029,115.950782
1082,Pannawonica,-21.634842,116.335669
1083,Nyabing,-33.53333,118.15
1084,Lake Toolbrunup,-34.01667,117.83333
1085,Cleaverville,-23.992438,134.050443
1086,Boilup,-23.992438,134.050443
1087,Malebelling,-23.992438,134.050443
1088,Waterford,-37.51667,147.2
1089,Milo,45.685231,-93.70287
1090,Northampton,52.247383,-0.894646
1091,Ashby,-31.732874,115.797523
1092,Green Valley,31.843789,-111.016136
1093,Rudds Gully,-28.826381,114.674089
1094,Moora,-30.647402,115.998035
1095,Salmon Gums,-32.98333,121.63333
1096,Jarrahwood,-33.8,115.66667
1097,Namban,-30.38026,116.04604
1098,Hastings,-39.651809,176.848629
1099,Nornalup,-35.0,116.81667
1100,Horrocks,-28.380148,114.431239
1101,Cherry Tree Pool,-33.75,117.28333
1102,Windabout,-33.82217,121.896616
1103,South Doodlakine,-31.58333,117.85
1104,Ledge Point,-31.10026,115.390221
1105,Kalgan,-34.88472,118.01306
1106,Kambalda East,-31.201911,121.658749
1107,Kenwick,-32.026674,115.982823
1108,Sir Samuel,52.33333,-3.41667
1109,Charley Creek,-23.992438,134.050443
1110,Warrenup,-34.971759,117.86517
1111,Perenjori,-29.433352,116.282784
1112,Mount Hill,-23.992438,134.050443
1113,Roelands,-33.28333,115.81667
1114,Osmington,-33.866853,115.215182
1115,Peedamulla,-23.992438,134.050443
1116,Mumberkine,-23.992438,134.050443
1117,Karlkurla,-30.752792,121.430362
1118,Treeby,52.374687,8.996665
1119,Parkwood,-32.046548,115.912551
1120,Yerecoin,-30.92252,116.39104
1121,Mount Magnet,-28.066208,117.816674
1122,Buckingham,-33.4,116.33333
1123,Bertram,-32.244096,115.845868
1124,Spalding,-28.736244,114.636714
1125,Culham,-31.41667,116.46667
1126,North Yunderup,-32.574237,115.791643
1127,Tarcoola Beach,-28.810313,114.622887
1128,Mulga Downs,-32.5725,137.48628
1129,Point Samson,-35.012289,117.879602
1130,Pinjar,-23.992438,134.050443
1131,Wanerie,-31.142854,115.640704
1132,Babbage Island,-24.875003,113.632401
1133,Benjaberring,-23.992438,134.050443
1134,Mumballup,-33.52861,116.1133
1135,Kelmscott,-32.106149,116.023424
1136,Bringo,-28.745456,114.841448
1137,Bedfordale,-32.18113,116.066746
1138,Mira Mar,-35.014789,117.889081
1139,Molloy Island,-34.212756,115.279459
1140,Nilgen,-30.972859,115.424427
1141,Granville,36.302598,-78.656377
1142,Wonnerup,-33.63333,115.43333
1143,Wannoo,52.374687,8.996665
1144,Burrup,-20.611506,116.784502
1145,North Burngup,-33.0171,118.69158
1146,Bornholm,-35.06056,117.5769
1147,Higginsville,-31.75,121.71667
1148,Nangeenan,-31.53333,118.16667
1149,Jennapullin,-31.53293,116.7201
1150,Highgate,-23.992438,134.050443
1151,Dindiloa,-28.4307,114.7895
1152,South Yelbeni,-31.18333,117.66667
1153,Winthrop,-32.052027,115.830368
1154,Cadoux,-30.76938,117.1328
1155,Gabbin,-30.8,117.68333
1156,Babakin,-32.12644,118.02413
1157,Stratherne,-23.992438,134.050443
1158,Ravenswood,-32.623064,115.825748
1159,Lower Chittering,-31.554274,116.062408
1160,Badgebup,-33.63333,117.9
1161,Hannans,-23.992438,134.050443
1162,Binnu,-28.04239,114.67804
1163,Wembley Downs,-31.918398,115.777087
1164,Eucla,-31.71667,128.86667
1165,Bennett Springs,-23.992438,134.050443
1166,Karranadgin,-31.23333,116.75
1167,Walebing,-30.6945,116.21483
1168,Gnowangerup,-33.938884,118.002072
1169,Wilgarrup,-23.992438,134.050443
1170,Helena Valley,-31.919614,116.039826
1171,Southern Brook,-31.55,116.83333
1172,Porongurup,-34.65,117.9
1173,Wiluna,-26.594161,120.223724
1174,Hope Valley,-34.843604,138.695812
1175,Northcliffe,-23.992438,134.050443
1176,Balladong,-23.992438,134.050443
1177,Piesseville,-33.2,117.3
1178,Mundijong,-32.289589,115.982862
1179,Millstream,52.374687,8.996665
1180,Kurrenkutten,-32.25,118.21667
1181,Avon Valley National Park,-31.636528,116.188743
1182,Rockwell,-28.345407,114.914254
1183,Balingup,-33.8,115.96667
1184,Whim Creek,-23.992438,134.050443
1185,Waikiki,21.279463,-157.832379
1186,Wittenoom,52.374687,8.996665
1187,Cookernup,-32.995815,115.887835
1188,Darkan,-33.340301,116.725933
1189,Burges,-23.992438,134.050443
1190,East Victoria Park,-31.988534,115.903655
1191,Shadforth,-33.4,149.23333
1192,Seville Grove,-23.992438,134.050443
1193,Wilyabrup,-33.795421,115.037359
1194,Lake Margarette,-23.992438,134.050443
1195,Kondut,-30.71667,116.76667
1196,Dixvale,-23.992438,134.050443
1197,Wilson,-23.992438,134.050443
1198,Meda,-9.6937,119.4421
1199,Cambridge Gulf,-31.935768,115.778255
1200,Quindalup,-33.62906,115.1223
1201,South Tammin,-31.52882,117.496842
1202,Mogumber,-31.04034,116.04247
1203,Coolup,-32.75,115.86667
1204,Myaree,-32.041116,115.815709
1205,Banksia Grove,-23.992438,134.050443
1206,Parkfield,-33.19213,115.7082
1207,Wedge Island,-35.15462,136.45886
1208,Womarden,-23.992438,134.050443
1209,Cane,-23.992438,134.050443
1210,South Quairading,-32.16667,117.46667
1211,Nanga,7.065405,16.915412
1212,Katrine,-23.992438,134.050443
1213,Yelbeni,-31.18333,117.66667
1214,Glenlynn,-34.0063,116.1535
1215,Capel River,-33.554111,115.561103
1216,Fraser Range,-35.191196,149.041381
1217,Hay,-34.509522,144.843538
1218,Kokeby,-23.992438,134.050443
1219,Naturaliste,-33.606184,115.066329
1220,Singleton,-32.566463,151.176038
1221,Sunset Beach,47.222644,-122.556786
1222,Anniebrook,-33.65914,115.17255
1223,Arrino,-29.43333,115.61667
1224,Mount Erin,-23.992438,134.050443
1225,Torndirrup,-31.952409,115.798289
1226,Grass Patch,-33.311491,121.656038
1227,Highbury,-34.849795,138.723859
1228,Cape Burney,-28.870703,114.648523
1229,William Bay,-31.947686,115.860016
1230,Upper Capel,-33.641901,115.782651
1231,Alexandra Bridge,-23.992438,134.050443
1232,Neergabby,-31.402171,115.616954
1233,Warralakin,-31.01672,118.60511
1234,Menzies,-29.69393,121.02853
1235,Ocean Reef,-31.75802,115.733863
1236,Ewlyamartup,-33.70549,117.73717
1237,Wooroloo,-31.803139,116.308192
1238,Yallingup Siding,-33.699059,115.09865
1239,Yarloop,-32.949227,115.906361
1240,Bailup,-23.992438,134.050443
1241,Maranup,-23.992438,134.050443
1242,Cramphorne,-31.80501,118.56013
1243,Belhus,-31.779286,116.008613
1244,North Lake,-23.992438,134.050443
1245,Wellstead,-34.489445,118.616354
1246,Iluka,-31.736343,115.73349
1247,Mardella,-32.33333,115.98333
1248,Howatharra,-28.579429,114.872177
1249,Hoffman,-23.992438,134.050443
1250,Mawson,-35.364831,149.094629
1251,North West Cape,-22.571427,113.929902
1252,Greys Plain,-24.875812,113.693681
1253,Pemberton,39.944836,-74.591763
1254,Forrest Beach,-18.695908,146.299736
1255,Bedford,52.131228,-0.45503
1256,Port Hedland,-20.376992,118.626374
1257,Kentdale,-34.9,117.05
1258,Yandoo Creek,-23.992438,134.050443
1259,Hamersley,-31.851161,115.812503
1260,Broomehill East,-34.104106,117.795687
1261,Dalyup,-33.71908,121.59802
1262,City Beach,-31.935314,115.764301
1263,Leinster,-23.992438,134.050443
1264,Innaloo,-31.892893,115.795021
1265,Welbungin,-30.82853,117.98865
1266,Lancelin,-31.02096,115.34623
1267,Youndegin,-31.78848,117.3287
1268,Kallaroo,-31.790552,115.744077
1269,Henley Brook,-31.811406,115.985115
1270,Gabbadah,-31.289967,115.510691
1271,Naval Base,-32.224324,115.773655
1272,Sinclair,-33.865202,121.872683
1273,Allanooka,-23.992438,134.050443
1274,Wannanup,-32.601444,115.645207
1275,Wedgefield,-23.992438,134.050443
1276,Castletown,-23.992438,134.050443
1277,Balla Balla,57.08607,-7.29911
1278,Wilbinga,-23.992438,134.050443
1279,Nanutarra,-22.575104,116.110486
1280,Broomehill,-33.848549,117.639239
1281,Hamelin Pool,-26.410714,114.463419
1282,Bulgarra,-20.726065,116.856464
1283,Talbot,38.741284,-76.127398
1284,Eurardy,-23.992438,134.050443
1285,Nokaning,-31.37333,118.2183
1286,Ucarty,-23.992438,134.050443
1287,Cockburn Central,-32.083201,115.992334
1288,Cheynes,-23.992438,134.050443
1289,Herdsman,-31.91908,115.805764
1290,Rothsay,-29.28333,116.88333
1291,Jarlmadangah Burru,-23.992438,134.050443
1292,Yornaning,-32.73333,117.15
1293,Brazier,52.374687,8.996665
1294,Teesdale,-23.992438,134.050443
1295,Mornington,-38.232579,145.060829
1296,Quinns Rock,-31.665149,115.697006
1297,Balladonia,-23.992438,134.050443
1298,Coomalbidgup,-33.622182,121.039744
1299,Bramley,52.374687,8.996665
1300,Monjingup,-33.789287,121.7712
1301,Trigwell,-23.992438,134.050443
1302,Mayanup,-33.95,116.45
1303,Pink Lake,-33.858386,121.811748
1304,Oombulgurri,-15.281194,126.797906
1305,Dalyellup,-33.405616,115.614625
1306,Monkey Mia,-25.796083,113.69568
1307,Spargoville,-31.23371,121.4639
1308,Nerren Nerren,-27.21164,114.612284
1309,Mckail,-34.971759,117.86517
1310,Glentromie,-23.992438,134.050443
1311,Mallee Hill,-23.992438,134.050443
1312,Serpentine,-23.992438,134.050443
1313,Brigadoon,-31.778443,116.078951
1314,Caljie,-23.992438,134.050443
1315,Yanchep,-31.537346,115.640515
1316,Clifton,40.866346,-74.164731
1317,Hammond Park,-32.166654,115.849497
1318,Jackitup,-23.992438,134.050443
1319,Thornlie,-32.060436,115.95415
1320,Beechina,-31.85,116.31667
1321,Mount Tarcoola,-28.799055,114.625177
1322,Cooljarloo,-30.674423,115.481443
1323,Coolgardie,-30.956925,121.163229
1324,Walsall,-23.992438,134.050443
1325,Myrup,-33.798407,121.938543
1326,Chidlow,-31.86028,116.265758
1327,Joondalup,-31.740336,115.771316
1328,Kangaroo Gully,-34.012804,116.284768
1329,Padbury,-31.805574,115.768513
1330,Waddington,-30.85,116.25
1331,Bindoon,-31.389038,116.07849
1332,Coolbinia,-31.913947,115.853349
1333,Dardanup,-33.398505,115.756665
1334,Carine,-31.851662,115.782584
1335,Pingrup,-33.53333,118.51667
1336,Canning Mills,-23.992438,134.050443
1337,Mount Barker,-35.069559,138.867675
1338,Cunjardine,-23.992438,134.050443
1339,East Wickepin,-32.78333,117.65
1340,Lower King,-34.95275,117.943227
1341,Yannarie,-23.992438,134.050443
1342,Barrow Island,-23.992438,134.050443
1343,Currambine,-31.733656,115.745343
1344,South Kununoppin,-31.11174,117.91793
1345,Drome,44.68932,5.163605
1346,Grey,35.401696,-100.812563
1347,Wagin,-33.32015,117.349965
1348,Newlands,-33.66667,115.86667
1349,East Rockingham,-32.2635,115.766728
1350,Esperance,-33.860243,121.888248
1351,South Greenough,-29.008644,114.777431
1352,Darling Downs,-32.179729,116.03861
1353,Elgin,-23.992438,134.050443
1354,Roebourne,-20.765556,117.142522
1355,Moresby,-17.63333,146.03333
1356,Mills Lake,-23.992438,134.050443
1357,South Glencoe,-23.992438,134.050443
1358,Coolbellup,-32.083595,115.805117
1359,Queenwood,-23.992438,134.050443
1360,Petrudor,-23.992438,134.050443
1361,Onslow,34.683776,-77.415915
1362,Boxwood Hill,-34.36167,118.7467
1363,Ocean Beach,-33.53333,151.31667
1364,Sabina River,-23.992438,134.050443
1365,Dalkeith,-32.0,149.96667
1366,Lathlain,-31.966929,115.90707
1367,Webberton,-28.752395,114.632225
1368,Casuarina,-23.992438,134.050443
1369,Dewars Pool,-23.992438,134.050443
1370,Walpole,-34.977281,116.735262
1371,Parmelia,-32.2478,115.826147
1372,Williamstown,-37.861823,144.896111
1373,Leeman,-23.992438,134.050443
1374,Perillup,-23.992438,134.050443
1375,Rawlinna,-31.01147,125.33021
1376,Booralaming,-23.992438,134.050443
1377,Brown Range,-24.885354,113.705556
1378,Coogee,-33.918384,151.253698
1379,South Murchison,-23.992438,134.050443
1380,Gidgegannup,-31.749345,116.189535
1381,Lesmurdie,-32.006785,116.043491
1382,Mahomets Flats,-28.791958,114.613874
1383,Howick,-23.992438,134.050443
1384,Karratha Industrial Estate,-20.767069,116.866082
1385,Eastbrook,-34.4,116.1
1386,Glendalough,-31.919574,115.81953
1387,Clackline,-31.716676,116.516306
1388,Preston Settlement,-33.399739,116.175033
1389,Gwindinup,-23.992438,134.050443
1390,Worsley,52.374687,8.996665
1391,Salter Point,-32.023262,115.865991
1392,Fairbridge,-32.573329,115.940826
1393,Tandegin,-23.992438,134.050443
1394,Kiara,-31.881444,115.93895
1395,Bandy Creek,-33.818388,121.913469
1396,Quairading,-32.008878,117.400346
1397,Frenchman Bay,-23.992438,134.050443
1398,Broadwood,-30.789549,121.451604
1399,Noranda,-23.992438,134.050443
1400,Coyrecup,-33.67806,117.83
1401,Mount Hawthorn,-31.919652,115.83568
1402,Bally Bally,-32.16667,117.1
1403,Ballidu,-30.6,116.76667
1404,Barberton,-30.75,116.03333
1405,Mount Adams,-23.992438,134.050443
1406,Karnup,-32.36667,115.81667
1407,Korbel,-31.66015,118.14886
1408,Success,-32.142557,115.85095
1409,Corrigin,-32.32748,117.873295
1410,Boonanarring,-31.260931,115.80531
1411,Lockyer,-27.51348,152.08223
1412,Floreat,-23.992438,134.050443
1413,Kenmare,-35.91667,142.16667
1414,Maida Vale,-23.992438,134.050443
1415,Caiguna,-32.27049,125.487397
1416,Moondah,-23.992438,134.050443
1417,Bowgada,-29.33492,116.17434
1418,Emu Flat,-37.11667,144.76667
1419,Stirling Range,-23.992438,134.050443
1420,Beverley,-32.107757,116.931764
1421,West Lamington,-30.746802,121.449586
1422,Mount Palmer,-31.4,119.68333
1423,West Kalgoorlie,-30.752457,121.471717
1424,Mirrabooka,-27.50107,145.92624
1425,Geographe,-33.640142,115.383577
1426,Cue,-27.423378,117.896779
1427,Forest Hill,-23.992438,134.050443
1428,Burns Beach,-31.723064,115.721324
1429,Camballin,-18.128907,123.823754
1430,Narrikup,-34.76667,117.73333
1431,Kingsford,-33.929724,151.233966
1432,Sherlock,37.960038,-101.020798
1433,Karramindie,-23.992438,134.050443
1434,Cundinup,-33.860565,115.874938
1435,Gibson Desert North,-22.331985,126.639623
1436,Norpa,-31.584,118.42383
1437,Yalyalup,-33.676968,115.414486
1438,Lakelands,-23.992438,134.050443
1439,Three Springs,40.199439,-77.97794
1440,White Gum Valley,-32.059672,115.770844
1441,Dardanup West,-33.39409,115.723449
1442,Kookynie,-29.33333,121.48333
1443,Goomarin,-31.24441,118.43576
1444,Kambalda,-31.212538,121.609999
1445,Burlong,-23.992438,134.050443
1446,Scarborough,-31.896289,115.763515
1447,Yourdamung Lake,-33.134042,116.30854
1448,De Grey,-20.311139,119.255863
1449,Jarrahdale,-32.337361,116.060465
1450,Willagee,-32.05229,115.806137
1451,Redmond,47.688678,-122.115347
1452,Muchea,-31.582062,115.965968
1453,Popanyinning,-32.66667,117.13333
1454,Gilgering,-32.017323,116.560433
1455,Derby,52.923468,-1.475258
1456,Kebaringup,-34.03333,118.15
1457,Elleker,-35.00917,117.73028
1458,Nambeelup,-32.519279,115.859153
1459,Takalarup,-23.992438,134.050443
1460,Brabham,-23.992438,134.050443
1461,Postans,-23.992438,134.050443
1462,Gnoorea,-23.992438,134.050443
1463,Menora,-23.992438,134.050443
1464,Halls Creek,-23.992438,134.050443
1465,Lowlands,-35.05765,117.51436
1466,Ellendale,44.924742,-123.316974
1467,Boorara Brook,-23.992438,134.050443
1468,Carmel,39.97837,-86.11804
1469,South Perth,-31.978717,115.863278
1470,Newcarlbeon,-30.5861,117.425527
1471,Como,45.800127,9.094613
1472,Rocklea,-27.546359,153.012273
1473,Subiaco,-31.948019,115.825873
1474,Dukin,-30.94041,117.43035
1475,Coodanup,-32.545779,115.756056
1476,King Leopold Ranges,-17.093856,125.463295
1477,Millendon,-31.807261,116.038315
1478,Wyola West,-23.992438,134.050443
1479,Amelup,-34.206981,118.271236
1480,Yilliminning,-32.9,117.36667
1481,Manjimup,-34.24589,116.143712
1482,Karrakup,-32.239349,116.026677
1483,Port Gregory,-28.188381,114.252094
1484,Warding East,-23.992438,134.050443
1485,Kalannie,-30.35,117.11667
1486,Yeal,-23.992438,134.050443
1487,Yarragadee,-23.992438,134.050443
1488,Kewdale,-31.980186,115.943829
1489,Pickering Brook,-32.049595,116.164539
1490,Pardoo,-23.992438,134.050443
1491,Darlington,-38.0,143.05
1492,Eighty Mile Beach,-23.992438,134.050443
1493,Fremantle,-32.054049,115.752924
1494,Lyalls Mill,-23.992438,134.050443
1495,Brookdale,-32.166235,116.000716
1496,Denbarker,-23.992438,134.050443
1497,Herne Hill,-23.992438,134.050443
1498,Mulataga,-20.741291,116.880456
1499,Dongara,-29.243054,114.926155
1500,Melville,-32.040263,115.800702
1501,Green Head,-23.992438,134.050443
1502,Cape Range National Park,-21.93024,114.05148
1503,Toolibin,-32.95,117.63333
1504,Narngulu,-28.83333,114.68333
1505,Kalumburu,-14.294717,126.640994
1506,Yarawindah,-23.992438,134.050443
1507,Kweda,-32.36667,117.43333
1508,Meenaar,-23.992438,134.050443
1509,Leeuwin,52.374687,8.996665
1510,Eradu,-23.992438,134.050443
1511,Lange,-23.992438,134.050443
1512,Minigin,-23.992438,134.050443
1513,Ambania,-28.69646,115.10158
1514,Broomehill Village,-33.848549,117.639239
1515,Hopetoun,-35.730318,142.364106
1516,Wundowie,-31.769712,116.38835
1517,Newman,-23.363409,119.739671
1518,Ranford,-32.792746,116.491448
1519,Argyle,-33.550128,115.776343
1520,Merriwa,-31.665042,115.712856
1521,Gibb,52.374687,8.996665
1522,Metricup,-33.78333,115.11667
1523,Lake Wells,-23.992438,134.050443
1524,Breton Bay,-23.992438,134.050443
1525,Lake Jasper,-23.992438,134.050443
1526,Yathroo,-30.28333,116.06667
1527,Bunjil,52.374687,8.996665
1528,Margaret River,-34.031307,115.193991
1529,Forrestfield,-31.983896,116.007159
1530,Dingup,-34.26098,116.237082
1531,Hacketts Gully,-23.992438,134.050443
1532,Myalup,-33.090509,115.728648
1533,Wellard,-32.262862,115.839263
1534,Macleod,-37.73333,145.06667
1535,Ringbark,-23.992438,134.050443
1536,Wannamal,-31.16667,116.05
1537,Yallingup,-33.65,115.03333
1538,Jigalong,-23.356632,120.781426
1539,Baandee,-31.58318,117.95363
1540,Burnside,-34.93995,138.666454
1541,Kalgup,-23.992438,134.050443
1542,Davenport,41.557574,-90.606945
1543,West Beach,38.698188,-76.533178
1544,Shotts,-33.38333,116.26667
1545,Old Plains,-23.992438,134.050443
1546,Cranbrook,-34.292935,117.55762
1547,Preston Beach,-32.864445,115.670902
1548,Kardinya,-32.06392,115.814672
1549,Cuballing,-32.82016,117.177103
1550,Middle Swan,-31.857766,116.019334
1551,Oldbury,-32.265334,115.918268
1552,Inglehope,-32.76667,116.16667
1553,Jindong,-23.992438,134.050443
1554,Bateman,-23.992438,134.050443
1555,Bandya,-23.992438,134.050443
1556,Koongamia,-31.90663,116.042217
1557,South Burracoppin,-31.56667,118.11667
1558,Yardarino,-23.992438,134.050443
1559,Minyirr,-17.988857,122.194525
1560,Cocklebiddy,-32.036678,126.094436
1561,Mount Hampton,-37.937582,145.008836
1562,Tambellup,-34.043307,117.633449
1563,Hamel,-23.992438,134.050443
1564,Laverton,-28.621415,122.402471
1565,Yabberup,-33.57199,116.095391
1566,Kalamunda,-31.976239,116.055754
1567,Londonderry,-31.07399,121.1228
1568,Strelley,-20.44059,118.9852
1569,Bullfinch,-30.98333,119.1
1570,Collins,40.542844,-105.06543
1571,Gracetown,-33.895069,114.98703
1572,Minding,-23.992438,134.050443
1573,Mundaring,-31.927825,116.158943
1574,Kalgoorlie,-30.752372,121.469366
1575,Sunnyside,40.740451,-73.923471
1576,Sandy Gully,-23.992438,134.050443
1577,Bowelling,-33.41667,116.5
1578,Remlap,-23.992438,134.050443
1579,Secret Harbour,-32.406209,115.758514
1580,Bunbury,-33.327283,115.638324
1581,Strathalbyn,-28.752345,114.644086
1582,Wanneroo,-31.755723,115.809704
1583,Nungarin,-31.18333,118.1
1584,Pallinup,-33.913736,118.124485
1585,Weld Range,-23.992438,134.050443
1586,Quinns Rocks,-31.665149,115.697006
1587,Indee,-23.992438,134.050443
1588,Broadwater,-33.662779,115.2842
1589,Burswood,-31.958318,115.895799
1590,Eagle Bay,-23.992438,134.050443
1591,Jibberding,-23.992438,134.050443
1592,Smith Brook,-23.992438,134.050443
1593,Glencoe,-29.9249,151.72233
1594,Springs,-23.992438,134.050443
1595,Acton Park,-42.875289,147.477019
1596,West Dale,-23.992438,134.050443
1597,Marbelup,-34.9675,117.73333
1598,Toodyay,-31.549017,116.457153
1599,Learmonth,-37.41885,143.71223
1600,Marmion,-23.992438,134.050443
1601,Myara,-23.992438,134.050443
1602,Karloo,-28.790665,114.640803
1603,Ravensthorpe,-33.581223,120.046948
1604,Carlotta,-23.992438,134.050443
1605,Wellesley,-36.98333,149.1
1606,East Ballidu,-30.6,116.76667
1607,West Lyons River,-23.992438,134.050443
1608,Datatine,-33.46667,117.91667
1609,Yakamia,-34.99991,117.876793
1610,Tenterden,-30.1318,151.4346
1611,Inkpen,-23.992438,134.050443
1612,Woodbridge,-31.890136,115.993011
1613,Commodine,-23.992438,134.050443
1614,Rossmoyne,-32.039132,115.868276
1615,East Bunbury,-33.337238,115.659315
1616,Piesse Brook,-31.966961,116.116005
1617,Flint,-23.992438,134.050443
1618,Drummond Cove,-28.673075,114.616238
1619,Withers,-23.992438,134.050443
1620,Wadderin,-31.994,118.45047
1621,Nanarup,-34.997123,118.044233
1622,Wyening,-31.18868,116.48571
1623,Denmark,-34.96617,117.357405
1624,Tanami,-20.145086,127.982051
1625,Caraban,-23.992438,134.050443
1626,Garden Island,-33.860655,151.228295
1627,Marradong,-32.906044,116.321217
